[
	{
		"c_id": 1,
		"c_name": "采姿美-台灣辦事處",
		"c_eng_name": "CaiZiMei (Taiwan)",
		"c_localphone": "02-27562282",
		"c_r_id": 0,
		"c_address": "台北市松山區南京東路五段223號13樓",
		"c_latitude": 25.051626,
		"c_longitude": 121.562267,
		"c_url": "http://localhost:8080/CaiZiMei_springmvc/"
	},
	{
		"c_id": 2,
		"c_name": "采姿美-大陸總管理處",
		"c_eng_name": "CaiZiMei (China)",
		"c_localphone": "",
		"c_r_id": 0,
		"c_address": "廣東省珠海市香洲區拱北情侶南路仁恒濱海中心1棟2單元1101",
		"c_latitude": 22.223058,
		"c_longitude": 113.560563,
		"c_url": "http://localhost:8080/CaiZiMei_springmvc/"
	},
	{
		"c_id": 3,
		"c_name": "曼星整形醫美診所",
		"c_eng_name": "Twinkle Clinic",
		"c_localphone": "02-27079333",
		"c_r_id": 0,
		"c_address": "台北市大安區信義路四段58號3F-2",
		"c_latitude": 25.033072,
		"c_longitude": 121.545437,
		"c_url": "http://twinkle-clinic.tw/"
	},
	{
		"c_id": 4,
		"c_name": "法泊時尚診所-台北",
		"c_eng_name": "Fabulous Clinic (Taipei)",
		"c_localphone": "02-27199010",
		"c_r_id": 0,
		"c_address": "台北市松山區復興北路311號3樓",
		"c_latitude": 25.058785,
		"c_longitude": 121.544431,
		"c_url": "http://www.fabulous-clinic.com"
	},
	{
		"c_id": 5,
		"c_name": "法泊時尚診所-高雄",
		"c_eng_name": "Fabulous Clinic (Kaohsiung)",
		"c_localphone": "07-5585838",
		"c_r_id": 0,
		"c_address": "高雄市左營區博愛二路656號",
		"c_latitude": 22.669675,
		"c_longitude": 120.303546,
		"c_url": "http://www.fabulous-clinic.com"
	},
	{
		"c_id": 6,
		"c_name": "喬雅時尚診所",
		"c_eng_name": "Joya Clinical Beauty",
		"c_localphone": "02-27715833",
		"c_r_id": 0,
		"c_address": "台北市大安區忠孝東路四段147巷1號10樓",
		"c_latitude": 25.041839,
		"c_longitude": 121.544056,
		"c_url": "http://www.joya-beauty.com.tw"
	},
	{
		"c_id": 7,
		"c_name": "晶鑽時尚診所-台北",
		"c_eng_name": "Diamond Cosmetic (Taipei)",
		"c_localphone": "02-27665066",
		"c_r_id": 0,
		"c_address": "台北市信義區忠孝東路4段563號3F",
		"c_latitude": 25.041589,
		"c_longitude": 121.564050,
		"c_url": "http://diamondcosmetic.com.tw/"
	},
	{
		"c_id": 8,
		"c_name": "晶鑽時尚診所-台中",
		"c_eng_name": "Diamond Cosmetic (Taichung)",
		"c_localphone": "",
		"c_r_id": 0,
		"c_address": "",
		"c_latitude": 24.151425,
		"c_longitude": 120.660433,
		"c_url": "http://diamondcosmetic.com.tw/"
	},
	{
		"c_id": 9,
		"c_name": "晶鑽時尚診所-高雄",
		"c_eng_name": "Diamond Cosmetic (Kaohsiung)",
		"c_localphone": "",
		"c_r_id": 0,
		"c_address": "",
		"c_latitude": 22.631724,
		"c_longitude": 120.304347,
		"c_url": "http://diamondcosmetic.com.tw/"
	},
	{
		"c_id": 10,
		"c_name": "好萊塢診所-台北仁愛",
		"c_eng_name": "Hollywood",
		"c_localphone": "02-27717771",
		"c_r_id": 0,
		"c_address": "台北市大安區仁愛路四段105巷5號",
		"c_latitude": 25.038633,
		"c_longitude": 121.550189,
		"c_url": "http://hollywood.tw/"
	},
	{
		"c_id": 11,
		"c_name": "好萊塢診所-台北忠孝",
		"c_eng_name": "Hollywood",
		"c_localphone": "02-27315900",
		"c_r_id": 0,
		"c_address": "台北市大安區忠孝東路四段94號2樓之1",
		"c_latitude": 25.041701,
		"c_longitude": 121.545949,
		"c_url": "http://hollywood.tw/"
	},
	{
		"c_id": 12,
		"c_name": "好萊塢診所-台北復興",
		"c_eng_name": "Hollywood",
		"c_localphone": "02-2751-9600",
		"c_r_id": 0,
		"c_address": "台北市大安區忠孝東路三段283號2樓",
		"c_latitude": 25.042171,
		"c_longitude": 121.542878,
		"c_url": "http://hollywood.tw/"
	},
	{
		"c_id": 13,
		"c_name": "好萊塢診所-台北南西",
		"c_eng_name": "Hollywood",
		"c_localphone": "02-25622701",
		"c_r_id": 0,
		"c_address": "台北市中山區南京東路一段24號3樓",
		"c_latitude": 25.052305,
		"c_longitude": 121.523649,
		"c_url": "http://hollywood.tw/"
	},
	{
		"c_id": 14,
		"c_name": "好萊塢診所-台北光復",
		"c_eng_name": "Hollywood",
		"c_localphone": "02-2778-6800",
		"c_r_id": 0,
		"c_address": "台北市大安區光復南路260巷23號3樓",
		"c_latitude": 25.040441,
		"c_longitude": 121.556414,
		"c_url": "http://hollywood.tw/"
	},
	{
		"c_id": 15,
		"c_name": "好萊塢診所-台北南港",
		"c_eng_name": "Hollywood",
		"c_localphone": "02-2782-8200",
		"c_r_id": 0,
		"c_address": "台北市南港區三重路26號1樓",
		"c_latitude": 25.056361,
		"c_longitude": 121.614177,
		"c_url": "http://hollywood.tw/"
	},
	{
		"c_id": 16,
		"c_name": "好萊塢診所-桃園",
		"c_eng_name": "Hollywood",
		"c_localphone": "03-3263123",
		"c_r_id": 0,
		"c_address": "桃園市新埔六街38號1樓",
		"c_latitude": 25.014528,
		"c_longitude": 121.302752,
		"c_url": "http://hollywood.tw/"
	},
	{
		"c_id": 17,
		"c_name": "好萊塢診所-台中",
		"c_eng_name": "Hollywood",
		"c_localphone": "04-22595825",
		"c_r_id": 0,
		"c_address": "台中市西屯區市政北一路1號2樓",
		"c_latitude": 24.157116,
		"c_longitude": 120.646442,
		"c_url": "http://hollywood.tw/"
	},
	{
		"c_id": 18,
		"c_name": "何彬彬牙醫診所",
		"c_eng_name": "Ho Bing Bing Dental Clinic",
		"c_localphone": "07-2270748",
		"c_r_id": 0,
		"c_address": "高雄市新興區民生一路56號",
		"c_latitude": 22.628011,
		"c_longitude": 120.310796,
		"c_url": "http://1637.tw/07-2270748/"
	},
	{
		"c_id": 19,
		"c_name": "璀璨精品牙醫診所",
		"c_eng_name": "Dazzling Dental Clinic",
		"c_localphone": "02-28721239",
		"c_r_id": 0,
		"c_address": "台北市士林區天玉街41號",
		"c_latitude": 25.121355,
		"c_longitude": 121.529410,
		"c_url": "http://www.dazzlingdental.com.tw/"
	}
]